[
  {"id": 67500001, "cp": "67500", "adresse": "Route de Strasbourg", "ville": "Haguenau", "nom": "CORA HAGUENAU", "gazole_prix": 1.669, "e10_prix": 1.719, "sp98_prix": 1.829, "geom": {"lat": 48.8038676231, "lon": 7.78854370117}},
  {"id": 67500004, "cp": "67500", "adresse": "100, Route de Bitche", "ville": "Haguenau", "nom": "TOTALACCESS HAGUENAU", "gazole_prix": 1.699, "e10_prix": 1.749, "sp98_prix": 1.859, "geom": {"lat": 48.82495, "lon": 7.77712}},
  {"id": 67500002, "cp": "67500", "adresse": "Route de Wintershouse", "ville": "Haguenau", "nom": "ESSENCE EXPRESS HAGUENAU", "gazole_prix": 1.659, "e10_prix": 1.709, "sp98_prix": 1.819, "geom": {"lat": 48.80122, "lon": 7.76145}},
  {"id": 67590001, "cp": "67590", "adresse": "Z.A.C. de la Sablière", "ville": "Schweighouse-sur-Moder", "nom": "LECLERC SCHWEIGHOUSE", "gazole_prix": 1.654, "e10_prix": 1.698, "sp98_prix": 1.809, "geom": {"lat": 48.818965412, "lon": 7.7412354789}},
  {"id": 67720001, "cp": "67720", "adresse": "Rue de la République", "ville": "Hoerdt", "nom": "INTERMARCHE HOERDT", "gazole_prix": 1.659, "e10_prix": 1.705, "sp98_prix": 1.815, "geom": {"lat": 48.6984215, "lon": 7.7845612}},
  {"id": 67240001, "cp": "67240", "adresse": "Route de Bischwiller", "ville": "Oberhoffen-sur-Moder", "nom": "TOTAL ACCESS OBERHOFFEN", "gazole_prix": 1.689, "e10_prix": 1.739, "sp98_prix": 1.849, "geom": {"lat": 48.723145, "lon": 7.854122}},
  {"id": 67240005, "cp": "67240", "adresse": "Route de Strasbourg", "ville": "Bischwiller", "nom": "AUCHAN BISCHWILLER", "gazole_prix": 1.658, "e10_prix": 1.699, "sp98_prix": 1.810, "geom": {"lat": 48.642157, "lon": 7.865412}},
  {"id": 67240003, "cp": "67240", "adresse": "Rue du Maréchal Foch", "ville": "Bischwiller", "nom": "AVIA BISCHWILLER", "gazole_prix": 1.719, "e10_prix": 1.769, "sp98_prix": 1.889, "geom": {"lat": 48.65341, "lon": 7.85982}},
  {"id": 67170003, "cp": "67170", "adresse": "Avenue de l'Europe", "ville": "Brumath", "nom": "SUPER U BRUMATH", "gazole_prix": 1.662, "e10_prix": 1.709, "sp98_prix": 1.819, "geom": {"lat": 48.71852, "lon": 7.70142}},
  {"id": 67170001, "cp": "67170", "adresse": "Route de Strasbourg", "ville": "Brumath", "nom": "SHELL BRUMATH", "gazole_prix": 1.749, "e10_prix": 1.799, "sp98_prix": 1.919, "geom": {"lat": 48.70563, "lon": 7.71245}},
  {"id": 67240002, "cp": "67240", "adresse": "Rue de la Gare", "ville": "Gries", "nom": "AVIA GRIES", "gazole_prix": 1.699, "e10_prix": 1.745, "sp98_prix": 1.859, "geom": {"lat": 48.75124, "lon": 7.81014}},
  {"id": 67360001, "cp": "67360", "adresse": "Route de Wœrth", "ville": "Gœrsdorf", "nom": "TOTAL GOERSDORF", "gazole_prix": 1.729, "e10_prix": 1.779, "sp98_prix": 1.899, "geom": {"lat": 48.95123, "lon": 7.77145}},
  {"id": 67600001, "cp": "67600", "adresse": "Route de Colmar", "ville": "Sélestat", "nom": "E.LECLERC SELESTAT", "gazole_prix": 1.649, "e10_prix": 1.695, "sp98_prix": 1.799, "geom": {"lat": 48.24954, "lon": 7.44365}},
  {"id": 67600002, "cp": "67600", "adresse": "Avenue de la Liberté", "ville": "Sélestat", "nom": "INTERMARCHE SELESTAT", "gazole_prix": 1.655, "e10_prix": 1.699, "sp98_prix": 1.805, "geom": {"lat": 48.26123, "lon": 7.43982}},
  {"id": 67120001, "cp": "67120", "adresse": "Rue de la Communauté", "ville": "Molsheim", "nom": "CORA MOLSHEIM", "gazole_prix": 1.664, "e10_prix": 1.715, "sp98_prix": 1.825, "geom": {"lat": 48.53456, "lon": 7.50234}},
  {"id": 67120002, "cp": "67120", "adresse": "Route d'Avolsheim", "ville": "Molsheim", "nom": "TOTAL ACCESS MOLSHEIM", "gazole_prix": 1.699, "e10_prix": 1.749, "sp98_prix": 1.859, "geom": {"lat": 48.54812, "lon": 7.49856}},
  {"id": 67150001, "cp": "67150", "adresse": "Route de Strasbourg", "ville": "Erstein", "nom": "LECLERC ERSTEIN", "gazole_prix": 1.652, "e10_prix": 1.699, "sp98_prix": 1.804, "geom": {"lat": 48.43125, "lon": 7.66542}},
  {"id": 67150002, "cp": "67150", "adresse": "Rue du Printemps", "ville": "Erstein", "nom": "SUPER U ERSTEIN", "gazole_prix": 1.658, "e10_prix": 1.705, "sp98_prix": 1.809, "geom": {"lat": 48.41982, "lon": 7.65412}},
  {"id": 67200001, "cp": "67200", "adresse": "Route d'Oberhausbergen", "ville": "Strasbourg", "nom": "AUCHAN STRASBOURG", "gazole_prix": 1.659, "e10_prix": 1.709, "sp98_prix": 1.819, "geom": {"lat": 48.59124, "lon": 7.71245}},
  {"id": 67100001, "cp": "67100", "adresse": "Avenue de Colmar", "ville": "Strasbourg", "nom": "TOTAL ACCESS STRASBOURG", "gazole_prix": 1.699, "e10_prix": 1.749, "sp98_prix": 1.869, "geom": {"lat": 48.55314, "lon": 7.75124}},
  {"id": 67000002, "cp": "67000", "adresse": "Place de l'Étoile", "ville": "Strasbourg", "nom": "ESSO EXPRESS ETOILE", "gazole_prix": 1.679, "e10_prix": 1.729, "sp98_prix": 1.839, "geom": {"lat": 48.57415, "lon": 7.75254}},
  {"id": 67300001, "cp": "67300", "adresse": "Route de Bischwiller", "ville": "Schiltigheim", "nom": "LECLERC SCHILTIGHEIM", "gazole_prix": 1.649, "e10_prix": 1.694, "sp98_prix": 1.799, "geom": {"lat": 48.60856, "lon": 7.74952}},
  {"id": 67400001, "cp": "67400", "adresse": "Rue de l'Industrie", "ville": "Illkirch", "nom": "CORA ILLKIRCH", "gazole_prix": 1.665, "e10_prix": 1.714, "sp98_prix": 1.824, "geom": {"lat": 48.52845, "lon": 7.71123}},
  {"id": 67400002, "cp": "67400", "adresse": "Route de Lyon", "ville": "Illkirch", "nom": "TOTAL ILLKIRCH", "gazole_prix": 1.709, "e10_prix": 1.759, "sp98_prix": 1.879, "geom": {"lat": 48.53951, "lon": 7.72854}},
  {"id": 67670001, "cp": "67670", "adresse": "Zone Artisanale", "ville": "Mommenheim", "nom": "AVIA MOMMENHEIM", "gazole_prix": 1.709, "e10_prix": 1.759, "sp98_prix": 1.869, "geom": {"lat": 48.75841, "lon": 7.64125}}
]
