[
  {
    "id": 67500001,
    "latitude": "4881500",
    "longitude": "778100",
    "cp": "67500",
    "pop": "R",
    "adresse": "Route de Strasbourg",
    "ville": "Haguenau",
    "nom": "CORA HAGUENAU",
    "gazole_prix": 1.749,
    "sp95_prix": 1.859,
    "e10_prix": 1.799,
    "sp98_prix": 1.919,
    "geom": {"lat": 48.815, "lon": 7.781}
  },
  {
    "id": 67410002,
    "latitude": "4868500",
    "longitude": "781200",
    "cp": "67410",
    "pop": "R",
    "adresse": "Rue de la République",
    "ville": "Drusenheim",
    "nom": "LECLERC DRUSENHEIM",
    "gazole_prix": 1.735,
    "sp95_prix": null,
    "e10_prix": 1.789,
    "sp98_prix": 1.899,
    "geom": {"lat": 48.685, "lon": 7.812}
  },
  {
    "id": 67240001,
    "latitude": "4872300",
    "longitude": "785400",
    "cp": "67240",
    "pop": "R",
    "adresse": "Route de Bischwiller",
    "ville": "Oberhoffen-sur-Moder",
    "nom": "TOTAL ACCESS OBERHOFFEN",
    "gazole_prix": 1.769,
    "sp95_prix": 1.879,
    "e10_prix": 1.819,
    "sp98_prix": 1.939,
    "geom": {"lat": 48.723, "lon": 7.854}
  },
  {
    "id": 67170003,
    "latitude": "4867900",
    "longitude": "764500",
    "cp": "67170",
    "pop": "R",
    "adresse": "Avenue de l'Europe",
    "ville": "Brumath",
    "nom": "SUPER U BRUMATH",
    "gazole_prix": 1.742,
    "sp95_prix": null,
    "e10_prix": 1.795,
    "sp98_prix": 1.915,
    "geom": {"lat": 48.679, "lon": 7.645}
  },
  {
    "id": 67720001,
    "latitude": "4869800",
    "longitude": "778900",
    "cp": "67720",
    "pop": "R",
    "adresse": "Rue de la République",
    "ville": "Hoerdt",
    "nom": "INTERMARCHE HOERDT",
    "gazole_prix": 1.745,
    "sp95_prix": 1.849,
    "e10_prix": 1.789,
    "sp98_prix": 1.909,
    "geom": {"lat": 48.698, "lon": 7.789}
  },
  {
    "id": 67240005,
    "latitude": "4861400",
    "longitude": "787500",
    "cp": "67240",
    "pop": "R",
    "adresse": "Route de Strasbourg",
    "ville": "Bischwiller",
    "nom": "AUCHAN BISCHWILLER",
    "gazole_prix": 1.739,
    "sp95_prix": null,
    "e10_prix": 1.785,
    "sp98_prix": 1.899,
    "geom": {"lat": 48.614, "lon": 7.875}
  }
]
