[
  {
    "id": 67720001,
    "cp": "67720",
    "adresse": "Rue de la République",
    "ville": "Hoerdt",
    "nom": "INTERMARCHE HOERDT",
    "geom": { "lon": 7.7845612, "lat": 48.6984215 },
    "gazole_prix": 2.149,
    "e10_prix": 2.079,
    "sp98_prix": 2.189
  },
  {
    "id": 67500001,
    "cp": "67500",
    "adresse": "Route de Strasbourg",
    "ville": "Haguenau",
    "nom": "CORA HAGUENAU",
    "geom": { "lon": 7.7885437, "lat": 48.8038676 },
    "gazole_prix": 2.139,
    "e10_prix": 2.065,
    "sp98_prix": 2.175
  },
  {
    "id": 67500004,
    "cp": "67500",
    "adresse": "100, Route de Bitche",
    "ville": "Haguenau",
    "nom": "TOTALACCESS HAGUENAU",
    "geom": { "lon": 7.77712, "lat": 48.82495 },
    "gazole_prix": 2.179,
    "e10_prix": 2.099,
    "sp98_prix": 2.219
  },
  {
    "id": 67500002,
    "cp": "67500",
    "adresse": "Route de Wintershouse",
    "ville": "Haguenau",
    "nom": "ESSENCE EXPRESS HAGUENAU",
    "geom": { "lon": 7.76145, "lat": 48.80122 },
    "gazole_prix": 2.129,
    "e10_prix": 2.059,
    "sp98_prix": 2.169
  },
  {
    "id": 67590001,
    "cp": "67590",
    "adresse": "Z.A.C. de la Sablière",
    "ville": "Schweighouse-sur-Moder",
    "nom": "LECLERC SCHWEIGHOUSE",
    "geom": { "lon": 7.7412354, "lat": 48.8189654 },
    "gazole_prix": 2.124,
    "e10_prix": 2.049,
    "sp98_prix": 2.159
  },
  {
    "id": 67240001,
    "cp": "67240",
    "adresse": "Route de Bischwiller",
    "ville": "Oberhoffen-sur-Moder",
    "nom": "TOTAL ACCESS OBERHOFFEN",
    "geom": { "lon": 7.854122, "lat": 48.723145 },
    "gazole_prix": 2.169,
    "e10_prix": 2.095,
    "sp98_prix": 2.209
  },
  {
    "id": 67240005,
    "cp": "67240",
    "adresse": "Route de Strasbourg",
    "ville": "Bischwiller",
    "nom": "AUCHAN BISCHWILLER",
    "geom": { "lon": 7.865412, "lat": 48.642157 },
    "gazole_prix": 2.128,
    "e10_prix": 2.049,
    "sp98_prix": 2.160
  },
  {
    "id": 67170003,
    "cp": "67170",
    "adresse": "Avenue de l'Europe",
    "ville": "Brumath",
    "nom": "SUPER U BRUMATH",
    "geom": { "lon": 7.70142, "lat": 48.71852 },
    "gazole_prix": 2.132,
    "e10_prix": 2.059,
    "sp98_prix": 2.169
  },
  {
    "id": 67240002,
    "cp": "67240",
    "adresse": "Rue de la Gare",
    "ville": "Gries",
    "nom": "AVIA GRIES",
    "geom": { "lon": 7.81014, "lat": 48.75124 },
    "gazole_prix": 2.179,
    "e10_prix": 2.105,
    "sp98_prix": 2.219
  },
  {
    "id": 67240003,
    "cp": "67240",
    "adresse": "Route de Haguenau",
    "ville": "Wœrth",
    "geom": { "lon": 7.748, "lat": 48.933 },
    "gazole_prix": 2.149,
    "e10_prix": 2.119,
    "sp98_prix": 2.189
  },
  {
    "id": 68730001,
    "cp": "68730",
    "adresse": "Rue du 19 Novembre",
    "ville": "Blotzheim",
    "geom": { "lon": 7.501, "lat": 47.607 },
    "gazole_prix": 2.095,
    "e10_prix": 2.038,
